School ID,School Name,ncessch,school_id,school_name_x,leaid_x,street_mailing,city_mailing,state_mailing,zip_mailing,street_location,city_location,state_location,zip_location,latitude_x,longitude_x,census_tract_x,hs_graduates,enrollment_crdc,tot_hhld_census_tract,college_enrollment,college_enrollment_pct,free_or_reduced_price_lunch,teachers_certified_fte_crdc,counselors_fte_crdc,law_enforcement_fte_crdc,salaries_crdc,enrl_AP_crdc,above_pov_rate,internet_rate,emp_rate_25_64,FY 2017 Ending Budget,food_stamps,median_earnings,ds_pm_pred,opportunity_index
400022,CHIARTS HS,170993006058,6058,Chicago HS for the Arts,1709930,2714 W Augusta Blvd,Chicago,IL,60622,2714 W Augusta Blvd,Chicago,IL,60622,41.899534,-87.695034,17031351000,126,620,2335,-0.2068986355833458,0.6378127696160952,2.661183965792564,0.4276075624551536,0.2870788297585056,0.4182065345230492,-0.0394494160032015,1.3519890153631076,-0.0577687817181531,0.9105621098943084,0.6002988601441387,0.6859993523961769,1.2203803673051823,0.8388895799376268,-1.226105045326788,0.9216699177469547
400035,CHICAGO MATH & SCIENCE HS,170993005092,5092,Chicago Math & Sci Elem Charter,1709930,7212 N Clark St,Chicago,IL,60626,7212 N Clark St,Chicago,IL,60626,42.008825,-87.672858,17031010202,86,592,976,-0.3803492498909964,1.0376962313635327,-0.4661879496156005,0.0915620227373315,0.2395508692886075,0.4182065345230492,-1.8077407769995557,0.1188596137992444,0.4737978159590313,0.0963961914006742,0.5537109549971397,0.4085948942297994,-0.0516073293362589,-0.4673940662726534,0.9413658419564944,0.08482243558496326
400091,CHICAGO TECH HS,170993006076,6076,Chicago Technology Academy HS,1709930,1301 W 14th St,Chicago,IL,60608,1301 W 14th St,Chicago,IL,60608,41.863183,-87.659626,17031842900,78,240,1148,-0.5990478505397733,-0.2722668329815207,-0.4239773139925354,-0.4164635978502098,-0.0060102598058653,0.4182065345230492,0.6950538245628262,-0.07558920138684,-0.7753836885823521,-1.5398841936264285,0.4255942158428891,0.0879079275692585,-0.8071114710805983,-0.570496365371129,0.3109858627864549,-0.2962837138346803
609750,SIMPSON HS,170993004383,4383,Simpson Acad HS for Young Women,1709930,1321 S Paulina St,Chicago,IL,60608,1321 S Paulina St,Chicago,IL,60608,41.864477,-87.668483,17031842900,20,42,1148,-0.8479117754159676,-0.3366158957914531,-0.1176691421709233,-5.283530480800493,-6.1249926807109984,0.4182065345230492,-1.6396799482793762,-0.9315391306143308,-0.7753836885823521,-1.5398841936264285,0.4255942158428891,-4.06138208132278,-0.8071114710805983,-0.570496365371129,0.3109858627864549,-2.1916935380955334
400094,EPIC HS,170993006088,6088,EPIC Academy High School,1709930,8255 S Houston Ave,Chicago,IL,60617,8255 S Houston Ave,Chicago,IL,60617,41.744942,-87.549779,17031460100,76,541,1105,-0.4482212294026858,1.0055216999585663,-0.6038925608950814,0.6659560130787842,0.7161482547769563,0.4182065345230492,1.8107428296726065,-0.6031335025748079,-1.0544561523628742,-0.0718139277239522,-1.1001596777213565,0.4719236988812261,-1.2495714199474344,-0.5013118319573856,-2.3776533231499,-0.15630640584625452
400147,CAMELOT - EXCEL HS,170993006219,6219,Chicago Excel Academy HS,1709930,1257 W 111th St,Chicago,IL,60643,1257 W 111th St,Chicago,IL,60643,41.69194,-87.654321,17031750600,75,300,1208,-0.8026637890748414,-1.82124070204918,-0.3869178067844884,1.1001083399719165,-0.2448359979308899,0.4182065345230492,4.790225775885872,-0.9315391306143308,-0.6026245443372675,-0.7754041815676818,-0.2732243613621092,0.6148654286694953,-0.7623032802282396,-0.5555288664988892,0.1941547626985365,-0.06261873976077967
609674,CHICAGO VOCATIONAL HS,170993000943,943,Chicago Vocational Career Acad HS,1709930,2100 E 87th St,Chicago,IL,60617,2100 E 87th St,Chicago,IL,60617,41.737729,-87.572866,17031450300,217,880,1361,-0.1918159734696371,-0.7870593354609801,-0.4913582361889844,0.4961981316970364,-0.1240071659941185,0.4182065345230492,0.2777473421885484,-0.5908416157866809,0.5601773880815737,-0.1649576373741693,-0.517810863383858,0.2735880841867537,-0.0864744355720932,-0.1762023392861179,-1.9413145623867527,-0.0685330856413251
609676,DUNBAR HS,170993000588,588,Dunbar Vocational Career Acad HS,1709930,3000 S King Dr,Chicago,IL,60616,3000 S King Dr,Chicago,IL,60616,41.839591,-87.618741,17031839200,151,457,1418,-0.3426425946067246,-0.4882958295577223,-0.5959524263724838,0.0768768281895642,0.6103105609192124,-3.535656788559421,-0.1362449911506482,-0.9315391306143308,0.1615024398236852,0.5082872195034399,0.2043016663946406,-0.3479231833811567,0.2168042972780358,-0.2838655500581085,-0.4773700821546433,-0.31364914239985753
609678,JONES HS,170993000990,990,Jones College Prep High School,1709930,700 S State St,Chicago,IL,60605,700 S State St,Chicago,IL,60605,41.874066,-87.628054,17031839000,430,1865,4720,1.9499220466770049,1.2169543349054868,2.975320533112475,0.5336343903084918,0.1227423965443197,0.4182065345230492,-0.1021895079897269,2.670632588067841,0.2943940892429814,1.186741879105198,0.9264141961731376,0.9276777743932184,1.138557658202057,1.7406653274419257,-1.0528902404138258,1.3158777918712075
609679,PROSSER HS,170993000681,681,Prosser Career Academy HS,1709930,2148 N Long Ave,Chicago,IL,60639,2148 N Long Ave,Chicago,IL,60639,41.91938,-87.761802,17031191200,314,1394,988,0.7885570639214314,0.4723437509619829,-0.4091276856687537,0.464145342544617,0.5098241349654513,0.4182065345230492,-0.3418006497474434,0.207558995373008,-0.3700641578534993,-1.0722291121401168,0.8099444333056378,0.6436120504699001,0.2220985201930007,-0.6573464017456704,1.4671057923521271,0.11927606696385973
609682,RICHARDS HS,170993000718,718,Richards Career Academy HS,1709930,5009 S Laflin St,Chicago,IL,60609,5009 S Laflin St,Chicago,IL,60609,41.802843,-87.662097,17031611200,42,217,708,-0.7800397959042783,-0.6767466563582388,-0.7568785489193286,0.1500238106112906,-0.1435826896013864,0.4182065345230492,0.502493666175244,-0.9315391306143308,-1.167414054369276,-1.065845667382634,-0.378047147942858,-0.1024468087173537,-0.5930953792481866,-1.04046298232094,-0.4174306481964884,-0.49061232877984445
609691,NORTH-GRAND HS,170993005074,5074,North-Grand High School,1709930,4338 W Wabansia Ave,Chicago,IL,60639,4338 W Wabansia Ave,Chicago,IL,60639,41.912521,-87.735313,17031230500,184,960,1124,0.0193412961222853,0.2838929241614667,-0.622510388321358,0.3578424971646081,-0.0060102598058653,0.4182065345230492,-0.2337364288276709,-0.1449905469998799,-0.9016307555306838,-0.4312943326981907,0.9380611724598884,0.6344614764523253,-0.881269427075058,-0.6222723485944133,1.0333068381126334,-0.06399531000509845
609692,SIMEON HS,170993000758,758,Simeon Career Academy High School,1709930,8147 S Vincennes Ave,Chicago,IL,60620,8147 S Vincennes Ave,Chicago,IL,60620,41.74549,-87.634742,17031842400,303,1335,1275,0.5924824564432177,0.2011584148344108,-0.2886476528395553,0.6767450074322374,0.8252713152507054,0.4182065345230492,0.3946583367785237,-0.9315391306143308,-0.0976362765439416,0.2138835162751936,-1.3098052508828557,0.7046864485669931,0.1933268843220005,-0.2632450902384134,-0.7806229810785023,0.05489845864841571
609694,HANCOCK HS,170993001980,1980,Hancock College Preparatory HS,1709930,4034 W 56th St,Chicago,IL,60629,4034 W 56th St,Chicago,IL,60629,41.791703,-87.724928,17031620300,200,971,1993,0.2908292141690428,0.8584381278215777,0.0158351251625477,0.5220859115445046,0.3295092643813306,0.4182065345230492,-0.0030261987414914,1.0640175836143726,0.9787860837523564,0.7576556768459678,0.3091244529753894,0.8248955456677016,0.14995833192893,-0.2886191763093778,0.3551784962979687,0.5277820594671229
609695,AMUNDSEN HS,170993000587,587,Amundsen High School,1709930,5110 N Damen Ave,Chicago,IL,60625,5110 N Damen Ave,Chicago,IL,60625,41.975232,-87.680089,17031040402,225,1226,2479,0.2682052209984796,0.3850128800056464,0.1779481940160469,0.4719172939719326,0.5296918444713106,0.4182065345230492,0.0839766384352145,-0.7277505138060574,1.1781235578813003,1.9858157789694524,0.9497081487466378,0.6847135719864059,1.2317549572225563,1.6014611641108374,0.8428213488388526,0.5797342456638382
609698,BOGAN HS,170993000626,626,Bogan High School,1709930,3939 W 79th St,Chicago,IL,60652,3939 W 79th St,Chicago,IL,60652,41.748598,-87.720583,17031700401,160,781,1857,-0.229522628753909,-0.1941286852837455,-0.369645514052441,0.2020513860787974,0.893092926783501,-0.5072303610716697,-0.417753123314815,-0.9315391306143308,0.6399123777331515,0.4118330209837947,0.3324184055488896,0.3833757122507547,0.1583654175463137,-0.0296107838077869,0.511122616850103,0.03814653011481659
609704,FARRAGUT HS,170993000788,788,Farragut Career Academy HS,1709930,2345 S Christiana Av,Chicago,IL,60623,2345 S Christiana Av,Chicago,IL,60623,41.849562,-87.708282,17031300800,170,728,1103,-0.3351012635498702,-0.7273066342803286,-0.839078701636828,-0.0373792951752781,0.4361539710753913,-0.0781988332375796,-0.2776576607759066,-0.8018882651833773,-1.1541248894273464,-1.4103855468531084,0.5537109549971397,0.1023770056372413,-1.5519120173166072,-0.9186031309877264,0.1784079622519044,-0.4864544036949408
609705,FENGER HS,170993000792,792,Fenger Academy High School,1709930,11220 S Wallace St,Chicago,IL,60628,11220 S Wallace St,Chicago,IL,60628,41.689552,-87.637839,17031491200,51,251,694,-0.7423331406200063,-0.6123975935483064,-0.5449427515782775,0.7123915031660352,0.0508727109064001,0.4182065345230492,1.754470715371819,-0.9315391306143308,-0.1840158486664848,0.0969420494493884,-1.0419247962876068,-0.0569380141493094,-0.3686536917143632,-0.5558500574618128,-0.9248839916218444,-0.19832154101791796
609708,FOREMAN HS,170993000799,799,Foreman High School,1709930,3235 N Leclaire Ave,Chicago,IL,60641,3235 N Leclaire Ave,Chicago,IL,60641,41.939595,-87.753937,17031151001,205,792,884,-0.0862373386736759,-0.3550013423085766,-0.6574040801730904,0.3570333998866405,0.5053096670098987,0.4182065345230492,-0.0514228613216975,-0.8263855766551795,0.320972419126841,-0.3195470717322212,0.6468867652911392,0.1473864476926978,0.3296286187887317,-0.1687507089462904,1.1100089951268783,-0.0392056336162772
609709,GAGE PARK HS,170993000809,809,Gage Park High School,1709930,5630 S Rockwell St,Chicago,IL,60629,5630 S Rockwell St,Chicago,IL,60629,41.79102,-87.689367,17031835100,66,329,1348,-0.7272504785062976,-0.9847028855200584,-0.8546754079670792,0.1701294694139245,0.3451112330765052,0.4182065345230492,-0.2285157949662091,-0.0371266521970399,0.1282795274688612,0.0756001335744276,-1.0419247962876068,-0.6663128885250179,-0.5318112764336786,-0.6342206524151712,-0.3778096664275437,-0.2653659526629962
609710,HARLAN HS,170993000851,851,Harlan Community Academy HS,1709930,9652 S Michigan Ave,Chicago,IL,60628,9652 S Michigan Ave,Chicago,IL,60628,41.71875,-87.621348,17031490500,138,386,729,-0.2823119461518896,-0.0010814968539484,-0.5941877079421506,0.2470297077940759,0.4849302358893023,0.4182065345230492,0.7346980303753301,-0.9315391306143308,0.6332677952621871,0.4338294865834132,-1.1001596777213565,-0.4367088893258948,-0.0716073231178379,-0.4794708464785808,-1.1539745400551211,-0.2189893132569236
609711,HARPER HS,170993000852,852,Harper High School,1709930,6520 S Wood St,Chicago,IL,60636,6520 S Wood St,Chicago,IL,60636,41.775322,-87.669837,17031671300,36,134,606,-0.7574158027337151,0.0724602892145458,-0.7317529655391081,0.1271048599985869,-1.0327594584290245,-2.27868232913171,3.066074371706503,-0.9315391306143308,0.0153216254624593,-1.4459784541040503,-2.3114452115433544,-1.675728617131664,-1.3325583920612436,-0.791411509669981,-0.3940644281789047,-0.9363031632811558
609712,HIRSCH HS,170993000879,879,Hirsch Metropolitan High School,1709930,7740 S Ingleside Ave,Chicago,IL,60619,7740 S Ingleside Ave,Chicago,IL,60619,41.753954,-87.601929,17031691500,32,137,781,-0.8177464511885502,-0.7089211877632051,-0.7812402380158859,-0.2052006210075058,-0.9818532868955804,0.4182065345230492,0.1333256601019393,-0.891012797409636,-0.8285403483500708,-1.4216108486218562,-1.6708615157721058,-1.624949893581269,-1.7053346812453334,-0.5845645295471826,-1.8991537740941544,-0.961355624460411
609713,HYDE PARK HS,170993000893,893,Hyde Park Academy High School,1709930,6220 S Stony Island,Chicago,IL,60637,6220 S Stony Island,Chicago,IL,60637,41.78211,-87.587269,17031420100,116,856,740,-0.3200186014361614,0.3436456253421182,-0.7478150638946273,0.4229710472125836,0.5641243242999939,-0.4261465209202633,-0.322850480186216,-0.6526365267488439,-0.6890041164598099,-0.3656763918081729,0.4372411921296401,0.6153192802183889,-1.4799549406052266,-0.5616957329870224,-1.4938006529195424,-0.2090271558701968
609715,KELLY HS,170993000920,920,Kelly High School,1709930,4136 S California Av,Chicago,IL,60632,4136 S California Av,Chicago,IL,60632,41.818178,-87.694838,17031580501,439,1891,1379,1.2108716031052762,0.1092311822487931,-0.5917767824910082,0.3862653015422377,0.6330200502279272,0.4182065345230492,-0.1917470753918288,-0.4382794346654916,-0.2039495960793791,-0.3965502871056122,0.2392425952548902,0.485439421954044,-0.218337852851278,-0.579682426910744,0.094086385666708,-0.030086430748397036
609716,KELVYN PARK HS,170993000923,923,Kelvyn Park High School,1709930,4343 W Wrightwood Av,Chicago,IL,60639,4343 W Wrightwood Av,Chicago,IL,60639,41.92744,-87.736051,17031200200,88,451,1596,-0.6593784989946083,-0.9847028855200584,-0.7331195763694479,0.2496800049563299,0.2558853124656235,0.4182065345230492,-0.2585759970091816,-0.2421421719748224,0.3276170015978054,-0.2031512792067723,0.8681793147393877,0.0686793569951779,-0.2134521350578319,-0.5237309611694528,0.8402815423151991,-0.051062435558258026
609718,KENNEDY HS,170993000924,924,Kennedy High School,1709930,6325 W 56th St,Chicago,IL,60638,6325 W 56th St,Chicago,IL,60638,41.790206,-87.780788,17031561100,340,1691,1877,0.8488877123762664,0.3252601788249949,0.7227321907430636,0.4028902201825587,0.3708680904737063,0.4182065345230492,-0.7646614368686834,-0.2321902664829304,1.38410561448121,0.4540222919017317,0.5770049075706384,0.7332409419351484,0.988641577317888,0.4623895331985831,0.7696749209577192,0.4947690922112311
609719,LAKE VIEW HS,170993000941,941,Lake View High School,1709930,4015 N Ashland Ave,Chicago,IL,60613,4015 N Ashland Ave,Chicago,IL,60613,41.955475,-87.668633,17031060100,269,1389,1227,0.4114905110787127,0.1781766066880064,0.3243594491147235,0.425256202763202,0.170602820082816,-0.1021435126040029,-0.4118442595156499,0.0837490931847825,1.2844368774167378,1.6065801550575824,1.0778248879008885,0.7533059135480994,1.3956806695949049,1.905179338651393,0.5664903990656888,0.6872152565514161
609720,LANE TECH HS,170993000942,942,Lane Technical High School,1709930,2501 W Addison St,Chicago,IL,60618,2501 W Addison St,Chicago,IL,60618,41.945356,-87.690624,17031843700,850,4441,963,5.0041611247030255,1.3916160768181605,2.474924463934433,0.7066887693698801,0.5905104654435096,0.4182065345230492,-0.0845048234963871,3.1278379323091583,1.3110152073005965,1.10854925970032,0.7982974570188885,1.0136953710381178,1.2476719566834964,1.4787019780814377,0.3988631685047537,1.458673847831622
610402,DEVRY HS,170993005790,5790,Devry Advantage Academy High Schl,1709930,3300 N Campbell Ave,Chicago,IL,60618,3300 N Campbell Ave,Chicago,IL,60618,41.941039,-87.691119,17031843700,100,193,963,-0.2747706150950352,1.134219825578431,0.9693888359946892,0.6454577145195851,-0.3220952364863159,0.4182065345230492,0.4977947126049118,2.80822249827486,1.3110152073005965,1.10854925970032,0.7982974570188885,0.3119663828048975,1.2476719566834964,1.4787019780814377,0.3988631685047537,1.0467870697451949
609722,MANLEY HS,170993001125,1125,Manley Career Academy High School,1709930,2935 W Polk St,Chicago,IL,60612,2935 W Polk St,Chicago,IL,60612,41.870762,-87.700024,17031271800,48,114,213,-0.7800397959042783,-0.9479319924858112,-0.3724283753948759,-0.6581707636261599,-1.4406042245156812,0.4182065345230492,0.861821058004219,-0.1035932531254351,-3.26045753272319,-1.1666974516909885,-0.3314592427958591,-1.7371632472361076,-1.513310756689303,-0.9969094877485,-0.0257924822495927,-0.9679210154791756
609723,MARSHALL HS,170993000972,972,Marshall Metropolitan High School,1709930,3250 W Adams St,Chicago,IL,60624,3250 W Adams St,Chicago,IL,60624,41.878873,-87.707189,17031271300,76,341,360,-0.5688825263123558,0.0402857578095798,-0.650417579023689,-0.0647411811441157,1.2919557082649205,0.4182065345230492,-0.0703078339017575,-0.5733386371276739,-1.997986863239877,-0.1911226388534759,-0.7041624839718585,-0.3250236774962911,-1.1904362435429494,-0.5462785667666896,-0.2823129411382843,-0.39190820256241565
609724,MATHER HS,170993000977,977,Mather High School,1709930,5835 N Lincoln Ave,Chicago,IL,60659,5835 N Lincoln Ave,Chicago,IL,60659,41.988119,-87.701409,17031020701,325,1442,615,0.781015732864577,0.3436456253421182,-0.1514463827409685,0.3690632512317319,0.2118175933655147,0.4182065345230492,-0.3950919069257959,0.4353112268130825,1.1581898104684063,1.2670593390068288,0.7400625755851387,0.6538825252045556,1.0199330870530023,0.1967646068607661,0.7838978374901645,0.5017305783890166
609725,MORGAN PARK HS,170993001002,1002,Morgan Park High School,1709930,1744 W Pryor Ave,Chicago,IL,60643,1744 W Pryor Ave,Chicago,IL,60643,41.692187,-87.665682,17031750500,235,1271,2087,0.2304985657142077,0.1460020752830401,-0.1292132331138757,0.3761818232707948,0.8017718650910596,0.1338767880795104,0.2985547129445966,-0.5646020397255602,0.0817674501721073,-1.0460633378103965,-0.0286378593403588,0.5323177027371664,0.5876746718109658,0.1911116459133107,-0.6576963453338189,0.07509600959647036
609726,BROOKS HS,170993002031,2031,Brooks College Prep Academy HS,1709930,250 E 111th St,Chicago,IL,60628,250 E 111th St,Chicago,IL,60628,41.694049,-87.615882,17031490901,200,961,1420,0.3511598626238777,1.0422925929928133,0.9109527423651091,0.5996447127056738,-0.004659618840131,-0.333891504456634,0.2372514613352644,2.690907795452345,0.5402436406686794,0.2002756393507964,-1.612626634338356,0.7327671248944788,-0.6638792104210921,-0.4564735735332511,-1.0503504338901817,0.6163357069510417
609727,PHILLIPS HS,170993001061,1061,Phillips Academy High School,1709930,244 E Pershing Rd,Chicago,IL,60653,244 E Pershing Rd,Chicago,IL,60653,41.824429,-87.619904,17031839600,92,634,785,-0.4482212294026858,0.3344529020835562,-0.4831823401541066,0.4227821250615324,0.3092685400094359,0.4182065345230492,-0.3603508852251941,-0.4411321458408004,0.5203098932557851,-0.7417528758518633,0.01795004580664,0.5146940155338736,0.0227024191920168,0.5857911011538302,-1.738130040494713,0.049569589801668645
609728,ROOSEVELT HS,170993001093,1093,Roosevelt High School,1709930,3436 W Wilson Ave,Chicago,IL,60625,3436 W Wilson Ave,Chicago,IL,60625,41.964989,-87.714552,17031140702,233,1099,2060,0.2304985657142077,0.1735802450587251,-0.6947819672747861,0.2207457856033574,0.7250551944578439,-0.2394515323190577,-0.6011340685137366,-0.4414986920727577,0.0950566151140371,0.0050423830606073,0.4488881684163893,0.4520987503672354,0.5744753554709656,-0.3098177798623354,1.1003577303370111,0.04050835709771897
609729,SCHURZ HS,170993001111,1111,Schurz High School,1709930,3601 N Milwaukee Ave,Chicago,IL,60641,3601 N Milwaukee Ave,Chicago,IL,60641,41.947454,-87.735529,17031161100,437,1739,746,1.0147969956270626,-0.1527614306202176,-0.4136720127603624,0.3596388885333443,0.575424754068282,-0.4130369565171757,-0.4897633085194335,-0.3632382901717279,1.5169972639005065,0.8180708511552309,1.112765816761138,0.5339689127160305,1.1122542063947862,1.9686466729250969,1.1841713456174696,0.46038995249570186
609730,SENN HS,170993001114,1114,Senn High School,1709930,5900 N Glenwood Ave,Chicago,IL,60660,5900 N Glenwood Ave,Chicago,IL,60660,41.989094,-87.666773,17031030500,291,1441,2864,0.720685084409742,0.596445514952567,0.2855246920034959,0.1900258396100074,0.2110680179908448,0.4182065345230492,-0.4548716746366652,0.0162877130113617,1.0120089961071803,1.7416904639906423,1.031236982753888,0.7343038965422373,1.3344094082734006,1.136762078952973,0.0580211330308657,0.5875129698172165
610390,RICKOVER MILITARY HS,170993005078,5078,Rickover Naval Academy High Schl,1709930,5900 N Glenwood Ave,Chicago,IL,60660,5900 N Glenwood Ave,Chicago,IL,60660,41.98902,-87.666421,17031030500,102,554,2864,-0.350183925663579,0.6056382382111289,-0.2317992093113021,0.5131278350295243,-0.3949314704552343,0.4182065345230492,0.604381952767046,0.5116079839384098,1.0120089961071803,1.7416904639906423,1.031236982753888,0.5733422375645898,1.3344094082734006,1.136762078952973,0.0580211330308657,0.5865735542906063
609732,STEINMETZ HS,170993001139,1139,Steinmetz College Prep HS,1709930,3030 N Mobile Ave,Chicago,IL,60634,3030 N Mobile Ave,Chicago,IL,60634,41.935607,-87.784325,17031190401,315,1276,1234,0.6829784291254701,0.2563147543857816,-0.2317093377250825,0.4530090769972585,0.3154295880862728,0.4182065345230492,-0.0450330218815127,-0.230998902169227,0.4605086510171015,-0.0896160484514827,-0.0868727407741086,0.5160680412091441,0.7353276356976799,-0.1316210336323222,1.5986677702772198,0.1957648383942741
609733,SULLIVAN HS,170993001149,1149,Sullivan High School,1709930,6631 N Bosworth Ave,Chicago,IL,60626,6631 N Bosworth Ave,Chicago,IL,60626,42.002831,-87.668928,17031830600,110,723,1868,-0.4633038915163945,-0.2722668329815207,-0.5312895206975196,0.3205065186240454,0.4302355634876352,-1.0813084353098876,-0.4540742111677333,-0.7625953293986323,0.3608399139526294,0.7841912691995259,0.5770049075706384,0.5842650179795075,0.2631645997438831,-0.2183425936216942,0.4948678550987419,0.04849960433121433
609734,TAFT HS,170993001153,1153,Taft High School,1709930,6530 W Bryn Mawr Ave,Chicago,IL,60631,6530 W Bryn Mawr Ave,Chicago,IL,60631,41.984656,-87.791426,17031100300,655,3373,2676,2.9453777461817823,0.7435290870895556,2.0209597526475287,0.5961020957400193,0.4607649312020988,0.2039266010930239,-0.3334466233625849,0.4132791170193131,1.2645031300038436,-0.4374310756244938,1.1011188404743872,0.9397265618857156,1.4169977045825892,0.8855907459467183,3.0615963278998715,0.8469472954722296
609735,TILDEN HS,170993001161,1161,Tilden Career Communty Academy HS,1709930,4747 S Union Ave,Chicago,IL,60609,4747 S Union Ave,Chicago,IL,60609,41.807504,-87.642518,17031843800,55,248,630,-0.7498744716768607,-0.8606011215294743,-0.5665795652308725,-0.3372242644337878,0.0358596101319019,0.4182065345230492,0.1670165922754378,-0.7300513530280863,0.0485445378172833,0.1164244496857517,-1.0768657251478564,-0.4706226262964895,-0.5068963863835348,-0.060573592633622,-0.7862105554305382,-0.35277130591698724
609737,VON STEUBEN HS,170993001180,1180,Von Steuben Metro Science HS,1709930,5039 N Kimball Ave,Chicago,IL,60625,5039 N Kimball Ave,Chicago,IL,60625,41.973222,-87.713126,17031831800,351,1726,2151,1.1957889409915676,0.8262635964166114,0.6829921907510524,0.5474665854031432,0.2090640547180308,0.4182065345230492,-0.0603599823699551,0.8923571828314887,0.7329365323266592,0.57551973121481,0.6352397890043883,0.7454883444412403,0.5040920590647617,-0.17800100867849,0.1982184531363768,0.5701809524357004
609749,NORTHSIDE PREP HS,170993003481,3481,Northside College Preparatory Hs,1709930,5501 N Kedzie Ave,Chicago,IL,60625,5501 N Kedzie Ave,Chicago,IL,60625,41.981351,-87.707935,17031831800,248,1059,2151,0.8639703744899752,1.547892372213711,2.659490668378324,0.478787641828933,0.1153293349429615,0.0769571410105489,0.2439776199268486,2.3556860780259674,0.7329365323266592,0.57551973121481,0.6352397890043883,0.7048321807215493,0.5040920590647617,-0.17800100867849,0.1982184531363768,0.9962538531751933
609738,LINCOLN PARK HS,170993001185,1185,Lincoln Park High School,1709930,2001 N Orchard St,Chicago,IL,60614,2001 N Orchard St,Chicago,IL,60614,41.919347,-87.645354,17031071200,507,2101,936,2.455191227486248,1.207761611646925,1.953291673066656,0.4844556308880015,0.4023455254843723,0.4182065345230492,-0.0884989347680506,0.9790624068717336,0.9787860837523564,1.5317487717494822,1.171000698194888,0.8552490013719332,1.3475291962429825,2.17761351340319,0.2906674105972537,1.073613301503368
609739,WASHINGTON HS,170993001189,1189,Washington G High School,1709930,3535 E 114th St,Chicago,IL,60617,3535 E 114th St,Chicago,IL,60617,41.687525,-87.53905,17031520600,304,1436,801,0.6678957670117615,0.3390492637128375,-0.3917548614459448,0.3620818063006993,0.4242347268248408,-0.5884316485681423,-0.7647349559205396,0.1703763846902006,0.5269544757267496,-0.7887486739068709,-0.2382834325018596,0.7544369405025652,0.8404669342691161,-0.4213995203819939,-1.0833679186976322,0.12791490248700793
609740,WELLS HS,170993001192,1192,Wells Community Academy HS,1709930,936 N Ashland Ave,Chicago,IL,60622,936 N Ashland Ave,Chicago,IL,60622,41.899153,-87.668346,17031242100,116,380,1666,-0.4859278846869577,-0.5250667225919696,-0.3222726513539101,0.1175406056082854,-0.3475802514034405,0.4182065345230492,-0.1302079535521502,0.4710985912492102,1.2312802176490196,1.918127337968756,0.8681793147393877,0.1356424485860858,1.255235587033574,1.4821066022884275,-0.408795306016079,0.4715226179955867
609741,HUBBARD HS,170993000889,889,Hubbard High School,1709930,6200 S Hamlin Ave,Chicago,IL,60629,6200 S Hamlin Ave,Chicago,IL,60629,41.780103,-87.718726,17031650100,345,1777,1206,0.901677029774247,0.3712237951178039,-0.6523257286529385,0.5542400476262285,0.4154452064726059,0.4182065345230492,-0.2627215015628995,0.3401028576583622,-0.0909916940729772,-0.2733682179192164,-0.0286378593403588,0.6942538483883016,-0.1746433303973816,-0.8665701949941033,0.3521307284695863,0.11444674638799146
609745,SOUTHSIDE HS,170993005305,5305,Southside Occupational Acad HS,1709930,7342 S Hoyne Ave,Chicago,IL,60636,7342 S Hoyne Ave,Chicago,IL,60636,41.759709,-87.676316,17031672000,29,269,1179,-0.9308664170413656,-2.8646147918959417,-0.3071699983899025,-1.152158608265519,0.1339191568263011,0.4182065345230492,-0.0239792537935588,-0.9315391306143308,0.2811049243010515,-0.8796843640100394,-1.6359205869118565,-1.657492872959076,-0.5858652157283731,-0.3807367444758662,-0.2538671080734026,-0.7476029968124455
609746,KENWOOD HS,170993000925,925,Kenwood Academy High School,1709930,5015 S Blackstone Av,Chicago,IL,60615,5015 S Blackstone Av,Chicago,IL,60615,41.803407,-87.589655,17031390700,360,1755,3287,1.323991568958092,0.954961722036476,1.6780976644565695,0.5575235561501566,0.404457610438742,-0.1995423675790666,-0.2232817505325207,0.3338985101932323,0.3475507490106996,0.5552891311663686,-0.0286378593403588,0.8560675131046682,1.272096875211332,0.7155522501749645,-1.4506239420174865,0.6478103717045044
609748,YORK HS,170993000693,693,York Alternative High School,1709930,2700 S California Av,Chicago,IL,60608,2700 S California Av,Chicago,IL,60608,41.843173,-87.695803,17031843500,32,210,300,-0.9233250859845114,-2.722127581388234,-0.5714590263510888,-2.8423684078473723,-0.1914339695302635,0.4182065345230492,-2.6920865636015816,-0.9315391306143308,-0.316907498085781,-0.8902984970188023,0.2741835241151398,-2.7465859841604403,0.0521780042483445,-0.8733152052154989,-0.0323959792110865,-1.2023011365442482
609751,KING HS,170993000931,931,King College Prep High School,1709930,4445 S Drexel Blvd,Chicago,IL,60653,4445 S Drexel Blvd,Chicago,IL,60653,41.813881,-87.602917,17031390300,130,600,1439,-0.0937786697305302,1.060678039509937,0.3966260598999305,0.2884219507150038,0.2535829338082917,0.4182065345230492,0.4659622893035456,1.335571492744969,-1.1142573946015573,-0.7857445259788033,0.0063030695198907,0.3495517380855648,-0.90651477382763,0.1575150711915022,-1.1255287069902304,0.2082297343631477
609753,CHICAGO AGRICULTURE HS,170993005147,5147,Chicago HS for Agricult Sciences,1709930,3857 W 111th St,Chicago,IL,60655,3857 W 111th St,Chicago,IL,60655,41.690023,-87.717329,17031740400,152,718,1818,0.034423958235994,1.0055216999585663,2.921922524008941,0.4691801423703696,0.4242347268248408,-3.608346197841717,0.5355393801640288,-0.6531604741163439,1.3907501969521745,0.3570090192651721,0.8565323384526384,0.2368990779946895,1.3012973454046548,1.1135720914298894,0.6584313952218367,0.5499538468135694
609755,YOUNG HS,170993000714,714,Young Magnet High School,1709930,211 S Laflin St,Chicago,IL,60607,211 S Laflin St,Chicago,IL,60607,41.87827,-87.663686,17031833100,463,2159,3820,2.1912446404963446,1.2445325046811726,2.910189036710382,0.6271572155230066,0.1376737913145227,0.4182065345230492,0.2114041728764349,1.9255204331128468,0.8126715219782361,1.3875915071236966,1.0545309353273882,0.8467956257578871,0.930129052945082,3.6080695858797354,-0.2858686702713957,1.3765362343058853
609756,CURIE HS,170993001198,1198,Curie Metropolitan High School,1709930,4959 S Archer Ave,Chicago,IL,60632,4959 S Archer Ave,Chicago,IL,60632,41.801913,-87.722181,17031570400,519,2916,525,2.0856660057003835,0.6791800242796229,-0.4382477297604784,0.391794616273389,0.330499435619894,-0.0775178930897597,-0.2713264332759383,0.0909169076353911,0.600044882907363,-0.9309285711010492,-0.1101666933476089,0.6728774548809928,0.7255157739874692,-0.6262551165346659,0.2601897323134473,0.11554618392672882
609759,CLEMENTE HS,170993001086,1086,Clemente Community Academy HS,1709930,1147 N Western Ave,Chicago,IL,60622,1147 N Western Ave,Chicago,IL,60622,41.902601,-87.685986,17031242400,94,755,1370,-0.4482212294026858,0.2655074776443429,-0.4700825665739747,0.1387593156794836,0.4667588014119705,-0.5390997111186403,-0.4239264258769221,-0.0637925046711578,0.9123402590427082,1.4337713974740842,0.8332383858791381,0.4808394550611524,1.3320112541758489,0.9901705234746424,-0.4890531921634351,0.36805427791526113
609760,CARVER MILITARY HS,170993000671,671,Carver Military Academy HS,1709930,13100 S Doty Ave,Chicago,IL,60827,13100 S Doty Ave,Chicago,IL,60827,41.656534,-87.589046,17031540102,108,478,1150,-0.3803492498909964,0.2425256694979385,-0.475258102508153,0.6993594113848214,0.6402573142544842,0.4182065345230492,2.059206490930169,-0.2926982923353035,-2.602643868097674,-1.3292799496030765,-1.9620359229408555,0.4239925186066897,-2.043685607093793,-1.1086839428459128,-1.5420569768689054,-0.38899763572185947
609761,CORLISS HS,170993001072,1072,Corliss High School,1709930,821 E 103rd St,Chicago,IL,60628,821 E 103rd St,Chicago,IL,60628,41.706533,-87.602607,17031500200,78,310,790,-0.6216718437103365,-0.4469285748941943,-0.0337424109031942,-0.0271573075869196,0.2870788297585056,-0.7475454258954597,0.1070963132646207,0.3758926706119671,-0.5162449722147252,-0.731892638571563,-1.0069838674273572,-0.4456472681683857,-2.147753636537988,-0.5320176880128817,-1.0752405378219518,-0.32777486500285824
609762,JULIAN HS,170993000895,895,Julian High School,1709930,10330 S Elizabeth St,Chicago,IL,60643,10330 S Elizabeth St,Chicago,IL,60643,41.70605,-87.654396,17031730700,192,516,716,-0.2521466219244721,-0.7089211877632051,-0.6769915575557784,0.2019877819691636,0.0845455054083755,0.4182065345230492,0.0381497463256187,0.0691314340388009,-0.137503771369731,0.1925270248211834,-0.0053439067668602,-0.2770752601067861,-0.649440635758645,-0.117231678493345,-1.1407675461321336,-0.12629774957182546
609764,JUAREZ HS,170993000722,722,Juarez Community Academy HS,1709930,2150 S Laflin St,Chicago,IL,60608,2150 S Laflin St,Chicago,IL,60608,41.852914,-87.66456,17031310700,296,1734,505,0.4718211595335477,0.021900311292456,-0.6688118734762459,0.4139221773547997,0.3937093635792555,0.4182065345230492,-0.7043578719830125,-0.3455900534661748,-0.104280859014907,0.4782511270188503,0.6468867652911392,0.7833288054757369,0.6401818784165703,-0.6635775064263882,-0.0654134640185374,0.12823863771775698
609766,VAUGHN HS,170993001018,1018,Vaughn Occupational High School,1709930,4355 N Linder Ave,Chicago,IL,60641,4355 N Linder Ave,Chicago,IL,60641,41.960243,-87.764367,17031150300,37,230,2991,-0.9007010928139482,-2.3682077359336056,0.3966260598999305,-0.8575975050550534,-0.0624435627654647,-1.153024368649724,0.0238040337540732,-0.9315391306143308,0.7595148622105179,0.8047539617344225,0.7866504807321392,-1.030889853152048,1.0338746337246607,0.7970705165649742,2.029926917993069,-0.1531109358551589
609769,GRAHAM HS,170993001076,1076,Graham  R Training Center,1709930,2347 S Wabash Ave,Chicago,IL,60616,2347 S Wabash Ave,Chicago,IL,60616,41.849534,-87.624985,17031841000,22,118,519,-0.9233250859845114,-2.6577785185783016,-0.443269793531833,-1.8700411415016387,-1.347975074251932,-5.7069308846250495,-0.1402411256389522,-0.9315391306143308,0.1482132748817554,1.3066220597636384,0.623592812717639,-2.7447897927941183,0.5916266452069727,2.879865434739349,-1.1697213405017532,-0.8698299877601628
609780,MARINE LEADERSHIP AT AMES HS,170993002618,2618,Marine Leadership Academy - Ames,1709930,1920 N Hamlin Ave,Chicago,IL,60647,1920 N Hamlin Ave,Chicago,IL,60647,41.916146,-87.722135,17031222900,76,864,300,-0.5915065194829189,-0.1435687073616557,-0.6607463878217238,0.4082762274912436,0.2103174015392656,0.4182065345230492,0.1777218080873594,-0.301786179681192,0.4139965737203477,0.6502584785997141,0.7982974570188885,0.633659134380491,0.0521780042483445,-0.5825731455770563,1.008416734180863,0.14288258140711843
609783,JEFFERSON HS,170993000894,894,Jefferson Alt High School,1709930,1100 S Hamilton Ave,Chicago,IL,60612,1100 S Hamilton Ave,Chicago,IL,60612,41.867671,-87.681435,17031838200,10,215,400,-0.9308664170413656,-2.8646147918959417,0.4852733861118703,-3.324923701338106,-0.1569365351629335,0.4182065345230492,-2.72211867722214,-0.9315391306143308,-0.894986173059719,0.2651192346950854,0.2159486426813899,-2.8631798854536368,0.9037972516570332,-1.6209192905164698,0.0295752999659839,-1.1157987742691733
610244,CLARK HS,170993001210,1210,Clark  G R Elem School,1709930,1045 S Monitor Ave,Chicago,IL,60644,1045 S Monitor Ave,Chicago,IL,60644,41.868021,-87.77017,17031831400,94,236,967,-0.3728079188341421,0.7527218103481175,-0.443269793531833,0.302179347143087,-0.0280096829935058,0.4182065345230492,0.3230315740135329,-0.9315391306143308,0.0884120326430727,-0.7470638304765287,0.15771376124764,-1.599728657137151,-0.4059094362418456,-0.6634490300412188,1.5290770715291977,-0.5024165379143128
610245,DOUGLASS HS,170993005789,5789,Douglass Academy High School,1709930,543 N Waller Ave,Chicago,IL,60644,543 N Waller Ave,Chicago,IL,60644,41.890188,-87.767076,17031251400,43,101,1712,-0.8252877822454044,-1.366200900750372,-0.6852809114919886,-0.2441018450507349,-1.792319859428036,0.4182065345230492,1.9072127474968743,-0.9315391306143308,-0.2371725084342031,-1.570258924898737,-0.0053439067668602,-1.472021339191192,-0.3124369724238995,-0.2788549710365004,1.1897589199695056,-0.7389815795536199
610304,PHOENIX MILITARY HS,170993004715,4715,Phoenix Military Academy HS,1709930,145 S Campbell Ave,Chicago,IL,60612,145 S Campbell Ave,Chicago,IL,60612,41.879116,-87.688418,17031280800,118,531,361,-0.229522628753909,0.757318171977398,-0.5150557639106164,0.6883518784577048,0.1186531382574304,-0.2623642898267393,0.9927245471824124,1.9020224002532824,-0.0311904518342935,-0.8343618022296707,-1.6242736106251052,0.3914318715404934,-0.91565813831448,-0.8165286429706065,1.1887429973600387,0.18683198147054586
610323,BOWEN HS,170993005072,5072,Bowen High School,1709930,2710 E 89th St,Chicago,IL,60617,2710 E 89th St,Chicago,IL,60617,41.734303,-87.557463,17031460600,67,297,355,-0.7498744716768607,-1.2191173286133838,-0.4033886988769537,0.2275778354118541,0.2430943199248915,0.4182065345230492,0.6058834862238841,0.3396504994696303,0.5203098932557851,-0.5858590686842229,-1.0186308437141065,-0.3371815003697853,-0.3063032309085416,-0.788649267388838,-1.4932926916148137,-0.12061039158285633
610334,RABY HS,170993005075,5075,Raby High School,1709930,3545 W Fulton Blvd,Chicago,IL,60624,3545 W Fulton Blvd,Chicago,IL,60624,41.8858,-87.715382,17031836800,68,378,936,-0.6820024921651714,-0.6353794016947109,-0.8739856158045328,-0.0960610757751125,0.4678503317120406,0.4182065345230492,-0.5335963134204252,-0.9315391306143308,-2.3302159867881174,-1.316914274882392,0.0994788798138902,0.0620429295828529,-2.367403982664456,-0.942307024051488,0.0981500761045483,-0.6399073673576725
610340,CHICAGO ACADEMY HS,170993005061,5061,Chicago Academy High School,1709930,3400 N Austin Ave,Chicago,IL,60634,3400 N Austin Ave,Chicago,IL,60634,41.943327,-87.776988,17031171100,105,542,1260,-0.2747706150950352,0.9457689987779148,0.1926717872315018,0.4320316420362404,0.7172106301523954,0.4182065345230492,-0.5849997606089495,0.0211287870259201,0.9522077538684977,0.4945098612844364,0.9147672198863882,0.6421285622890949,1.309075174428044,0.2595895592086222,1.4808207475798436,0.4901551211331188
610357,SPRY HS,170993005677,5677,Spry Community Links High School,1709930,2400 S Marshall Blvd,Chicago,IL,60623,2400 S Marshall Blvd,Chicago,IL,60623,41.848607,-87.697784,17031301100,43,129,796,-0.6970851542788802,0.4493619428155784,-0.726240072117967,-0.7418336008877112,-1.1228646974481695,-2.38321290524236,-0.233408270157196,1.3065197666743942,-0.7222270288146339,-1.316914274882392,-0.3431062190826084,-0.2478341867003176,-1.368613906001327,-0.7414984340316535,0.434928421140596,-0.46803208969820814
610381,BRONZEVILLE HS,170993005792,5792,Bronzeville Scholastic HS,1709930,4934 S Wabash Ave,Chicago,IL,60615,4934 S Wabash Ave,Chicago,IL,60615,41.804436,-87.62508,17031381800,84,322,537,-0.5010105468006665,0.2563147543857816,-0.5583056963748525,0.3682904054931439,0.3245276575289311,0.4182065345230492,-0.0581258814522625,-0.9142965602756872,-0.0311904518342935,-0.4231661369000119,0.7051216467248891,0.2266007411645694,-0.4399843716828634,0.1711335680194629,-1.7000329426399643,-0.12665605230079735
610383,SOCIAL JUSTICE HS,170993005793,5793,School of Social Justice HS,1709930,3120 S Kostner Ave,Chicago,IL,60623,3120 S Kostner Ave,Chicago,IL,60623,41.834912,-87.735753,17031830500,70,286,1072,-0.553799864198647,0.4171874114106128,-0.718491179966574,0.113059451453389,0.2027534972964288,-0.8453707652312786,-0.7454127860142595,0.6603239016288196,-0.3966424877373579,0.5933056259993512,0.1460667849608907,0.2192102659743096,0.0598524103077863,-0.6844549190164222,0.5949362321305705,0.027194044435619832
610384,INFINITY HS,170993005795,5795,Infinity Math  Science & Tech HS,1709930,3120 S Kostner Ave,Chicago,IL,60623,3120 S Kostner Ave,Chicago,IL,60623,41.834922,-87.735531,17031830500,79,418,1072,-0.4557625604595402,0.7986854266409263,-0.5852102349626095,0.3536266745057254,0.5467120902338473,0.4182065345230492,-0.4960011491063573,0.3037384085268558,-0.3966424877373579,0.5933056259993512,0.1460667849608907,0.5400894246979627,0.0598524103077863,-0.6844549190164222,0.5949362321305705,0.1486706194607723
610385,MULTICULTURAL HS,170993005794,5794,Multicultural Acad Scholarshp HS,1709930,3120 S Kostner Ave,Chicago,IL,60623,3120 S Kostner Ave,Chicago,IL,60623,41.835448,-87.735546,17031830500,56,230,1072,-0.6669198300514626,0.0081112264046134,-0.5977656863035626,-0.133209194276573,-0.0624435627654647,0.4182065345230492,-1.0056611890561031,-0.4970263580805164,-0.3966424877373579,0.5933056259993512,0.1460667849608907,0.2136101346395839,0.0598524103077863,-0.6844549190164222,0.5949362321305705,-0.1444574544057425
610392,WORLD LANGUAGE HS,170993005788,5788,World Language High School,1709930,3120 S Kostner Ave,Chicago,IL,60623,3120 S Kostner Ave,Chicago,IL,60623,41.835226,-87.735982,17031830500,74,352,1072,-0.5010105468006665,0.6745836626503422,-0.6754525414757104,0.3287149951577812,-0.4779978845588785,0.4182065345230492,-0.3569409529842565,0.7246293442423004,-0.3966424877373579,0.5933056259993512,0.1460667849608907,0.5367137053800897,0.0598524103077863,-0.6844549190164222,0.5949362321305705,0.1262078759194011
610386,PEACE AND EDUCATION HS,170993002596,2596,Peace and Education Coalition HS,1709930,4946 S Paulina St,Chicago,IL,60609,4946 S Paulina St,Chicago,IL,60609,41.80356,-87.667611,17031611300,49,104,824,-0.8403704443591132,-1.738506192722124,-0.079853318489243,-2.766082093067588,-4.698656452061784,0.4182065345230492,-1.896179112095844,-0.9315391306143308,-0.283684585730957,-1.1529640366257536,-0.7158094602586078,-1.8684092055026071,-0.3475011516155608,-0.7612195591551626,-0.3092348902889794,-1.373363201404108
610391,LINDBLOM HS,170993005791,5791,Lindblom Math & Science Acad HS,1709930,6130 S Wolcott Ave,Chicago,IL,60636,6130 S Wolcott Ave,Chicago,IL,60636,41.78211,-87.672162,17031670600,205,1325,373,0.5321518079883827,1.4835433094037782,1.2021459146861566,0.4439884582885729,0.3515426295117473,-0.4000193697706967,-0.2626208587197293,1.8424195589453576,-1.4531311006207626,-1.7458175368095932,-4.268137227717349,0.8223169146490581,-1.593076803634332,-0.5568778685431683,-0.7902742458683785,0.12550292429266074
610394,UPLIFT HS,170993005787,5787,Uplift Community High School,1709930,900 W Wilson Ave,Chicago,IL,60640,900 W Wilson Ave,Chicago,IL,60640,41.965948,-87.65217,17031031501,59,242,1776,-0.6593784989946083,-0.0608341980345998,-0.5064533129148118,-0.1313671388136907,0.0047167316657939,0.4182065345230492,0.1549636720512079,-0.9315391306143308,-1.300305703788572,-0.1759092383665977,-0.0752257644873593,-0.2524399227379024,-0.905984123679262,-0.4242902390483064,-0.2208496232659517,-0.4250599150608855
610513,AIR FORCE HS,170993006055,6055,Air Force Acad High School,1709930,3630 S Wells St,Chicago,IL,60609,3630 S Wells St,Chicago,IL,60609,41.827898,-87.632962,17031340600,45,263,413,-0.6970851542788802,0.3022783706785905,-0.0285215730354028,-0.0067219694930831,-1.0769555642597075,0.4182065345230492,1.1477684170444864,-0.1504441381633886,-3.107632135891,-2.117464463367336,-2.7074424052928525,0.0655896838804335,-1.9223927867647563,-1.2525132560431007,-0.4514640556134061,-0.7016135080395262
610518,AUSTIN CCA HS,170993005984,5984,Austin College and Career Acad HS,1709930,231 N Pine Ave,Chicago,IL,60644,231 N Pine Ave,Chicago,IL,60644,41.884832,-87.762933,17031251900,84,219,1601,-0.6895438232220258,-1.113401011139923,-0.6709198228837278,-0.1838425886723993,-0.1304727498948447,0.4182065345230492,0.2560088559276232,-0.1963285286862381,-1.5328660902723406,-1.305811428279655,-1.717449420919105,-0.4782493140448939,-1.331882673566792,-0.871452297630542,1.268492922202666,-0.5702604995723095
610524,ALCOTT HS,170993006072,6072,Alcott Humanities High School,1709930,2957 N Hoyne Ave,Chicago,IL,60618,2957 N Hoyne Ave,Chicago,IL,60618,41.935468,-87.680351,17031051400,57,311,787,-0.5764238573692102,0.927383552260791,0.0861228851297084,-3.070000884103452,-0.7113358180179644,0.4182065345230492,-0.2886861724814881,0.5680655077124455,1.091743985758758,1.4070301771691165,0.7167686230116384,-1.5850023865726484,1.0312206105570263,1.80387570894529,0.5436321403528339,-0.2157115955234447
610529,OGDEN HS,170993006093,6093,Ogden Int High School,1709930,1250 W Erie St,Chicago,IL,60642,1250 W Erie St,Chicago,IL,60642,41.893928,-87.6585,17031243200,78,885,928,-0.4180559051752683,1.1434125488369928,2.141025140104364,-1.0590788257409411,-0.1160073757440676,0.4182065345230492,-0.673793994843481,-0.9189919946842896,0.9189848415136735,1.86278306372015,0.9613551250333888,-0.1270678391220024,1.3038422071736713,1.7660394135128898,0.342987424984448,0.37692067855190736
