School ID,School Name,ncessch,school_id,school_name,leaid,latitude,longitude,census_tract,college_enroll_pct,salaries_crdc,free_or_reduced_price_lunch,teachers_certified_fte_crdc,counselors_fte_crdc,law_enforcement_fte_crdc,enrl_AP_crdc,FY 2017 Ending Budget,food_stamps,above_pov_rate,internet_rate,emp_rate_25_64,median_earnings,ds_pm_pred
609749,NORTHSIDE PREP HS,170993003481,3481,Northside College Preparatory High School,1709930,41.981351,-87.707935,17031831800,0.96,5719404.0,470.0,64.5,4.0,1.0,627,9894098,365,86.4,76.61552766155276,94.6,30148,71.9305
609737,VON STEUBEN HS,170993001180,1180,Von Steuben Metro Science High School,1709930,41.973222,-87.713126,17031831800,0.8029999999999999,8329470.0,1303.0,100.5,6.0,0.0,567,15605599,365,86.4,76.61552766155276,94.6,30148,71.9305
610391,LINDBLOM HS,170993005791,5791,Lindblom Math & Science Academy High School,1709930,41.78211,-87.672162,17031670600,0.946,6520020.5,892.0,82.5,4.0,3.0,662,11225332,185,53.5,43.96782841823057,52.5,24250,69.8533
609720,LANE TECH HS,170993000942,942,Lane Technical High School,1709930,41.945356,-87.690624,17031843700,0.9259999999999999,19039190.0,2100.0,231.0,10.0,0.0,3247,31323487,52,95.1,84.11214953271028,96.0,55938,70.7126
610402,DEVRY HS,170993005790,5790,Devry Advantage Academy High School,1709930,41.941039,-87.691119,17031843700,0.87,981791.75,137.0,10.5,1.0,0.0,130,2365254,52,95.1,84.11214953271028,96.0,55938,70.7126
609755,YOUNG HS,170993000714,714,Young Magnet High School,1709930,41.87827,-87.663686,17031833100,0.894,10478300.0,873.0,119.0,8.0,0.0,1111,17899161,395,87.6,88.03664921465969,98.2,89086,70.4221
609678,JONES HS,170993000990,990,Jones College Prep High School,1709930,41.874066,-87.628054,17031839000,0.888,8996421.0,735.0,109.6,7.0,0.0,1210,14343535,335,79.8,85.21186440677965,97.1,60016,69.7877
609738,LINCOLN PARK HS,170993001185,1185,Lincoln Park High School,1709930,41.919347,-87.645354,17031071200,0.8859999999999999,10498951.0,1166.0,127.5,6.0,0.0,723,17286653,36,90.1,90.06410256410257,99.2,66818,70.4959
610529,OGDEN HS,170993006093,6093,Ogden International High School,1709930,41.893928,-87.6585,17031243200,0.872,7618877.0,465.0,107.0,4.0,0.0,2,13726159,42,89.2,94.71982758620688,97.4,60411,70.7644
609751,KING HS,170993000931,931,King College Prep High School,1709930,41.813881,-87.602917,17031390300,0.8540000000000001,3808821.75,480.0,41.0,2.0,0.0,245,7185948,560,58.6,57.47046560111188,89.2,35371,69.392
609726,BROOKS HS,170993002031,2031,Brooks College Prep Academy High School,1709930,41.694049,-87.615882,17031490901,0.85,4781425.0,691.0,54.0,4.0,2.0,627,8779490,499,83.5,71.3380281690141,75.3,25813,68.6159
400035,CHICAGO MATH & SCIENCE HS,170993005092,5092,Chicago Math & Science Elementary Charter,1709930,42.008825,-87.672858,17031010202,0.8490000000000001,2232963.0,554.0,45.0,2.0,0.0,112,6831023,250,82.5,69.87704918032787,93.9,25643,70.2399
400094,EPIC HS,170993006088,6088,EPIC Academy High School,1709930,41.744942,-87.549779,17031460100,0.8420000000000001,3436328.0,518.0,29.0,1.0,0.0,32,5988562,489,59.5,67.51131221719457,79.7,25115,67.9392
609753,CHICAGO AGRICULTURE HS,170993005147,5147,Chicago High School for Agricultural Sciences,1709930,41.690023,-87.717329,17031740400,0.8420000000000001,4145785.25,289.0,44.0,2.0,8.0,36,9198786,83,96.3,73.54235423542355,96.5,50254,68.78359999999999
609746,KENWOOD HS,170993000925,925,Kenwood Academy High School,1709930,41.803407,-87.589655,17031390700,0.831,8097600.5,1050.0,101.5,5.0,3.0,400,14429178,165,80.6,76.33100091268633,88.9,44058,68.693
610340,CHICAGO ACADEMY HS,170993005061,5061,Chicago Academy High School,1709930,41.943327,-87.776988,17031171100,0.8290000000000001,2478414.0,451.0,34.0,1.0,0.0,93,5315770,56,89.7,75.47619047619048,97.0,36960,73.02199999999999
610524,ALCOTT HS,170993006072,6072,Alcott Humanities High School,1709930,41.935468,-87.680351,17031051400,0.825,4869135.0,264.0,62.0,2.0,0.0,84,8184750,69,91.8,88.31003811944092,95.3,61000,70.7462
609694,HANCOCK HS,170993001980,1980,Hancock College Preparatory High School,1709930,41.791703,-87.724928,17031620300,0.81,4828365.0,835.0,57.5,3.0,0.0,349,8207701,448,90.1,79.17711991971902,91.8,28426,71.5166
610384,INFINITY HS,170993005795,5795,Infinity Math  Science & Tech High School,1709930,41.834922,-87.735531,17031830500,0.797,2051183.5,399.0,27.5,1.0,0.0,93,4415800,256,69.4,76.86567164179104,90.4,22264,72.0762
610392,WORLD LANGUAGE HS,170993005788,5788,World Language High School,1709930,41.835226,-87.735982,17031830500,0.77,1815029.625,341.0,23.5,2.0,0.0,105,3727377,256,69.4,76.86567164179104,90.4,22264,72.0762
610383,SOCIAL JUSTICE HS,170993005793,5793,School of Social Justice High School,1709930,41.834912,-87.735753,17031830500,0.7140000000000001,1501587.875,279.0,21.5,1.0,1.0,82,3701643,256,69.4,76.86567164179104,90.4,22264,72.0762
610385,MULTICULTURAL HS,170993005794,5794,Multicultural Academy Scholarshp High School,1709930,41.835448,-87.735546,17031830500,0.625,1265312.875,220.0,19.5,1.0,0.0,18,2986394,256,69.4,76.86567164179104,90.4,22264,72.0762
610304,PHOENIX MILITARY HS,170993004715,4715,Phoenix Military Academy High School,1709930,41.879116,-87.688418,17031280800,0.7879999999999999,2881879.25,501.0,28.0,2.0,1.0,271,6194710,141,74.9,56.78670360110804,75.2,20208,71.1502
610244,CLARK HS,170993001210,1210,Clark  G R Elementary School,1709930,41.868021,-87.77017,17031831400,0.787,1442841.75,220.0,16.0,1.0,0.0,0,6236699,301,76.7,58.01447776628749,90.5,22591,72.3807
609734,TAFT HS,170993001153,1153,Taft High School,1709930,41.984656,-87.791426,17031100300,0.785,14759672.0,1836.0,190.0,9.0,2.0,817,25640147,74,94.4,62.36920777279522,98.6,46705,72.3655
609756,CURIE HS,170993001198,1198,Curie Metropolitan High School,1709930,41.801913,-87.722181,17031570400,0.7709999999999999,14787160.0,2716.0,187.5,9.0,4.0,537,27934553,71,84.4,55.42857142857143,88.2,23170,71.5503
400022,CHIARTS HS,170993006058,6058,Chicago High School for the Arts,1709930,41.899534,-87.695034,17031351000,0.762,3247853.75,275.0,39.0,2.0,0.0,255,5879136,136,74.5,81.32762312633834,94.3,45978,69.1639
610390,RICKOVER MILITARY HS,170993005078,5078,Rickover Naval Academy High School,1709930,41.98902,-87.666421,17031030500,0.755,3152579.5,498.0,33.0,3.0,0.0,144,5715956,116,90.6,93.01675977653632,98.0,50615,70.00489999999999
609730,SENN HS,170993001114,1114,Senn High School,1709930,41.989094,-87.666773,17031030500,0.753,7838618.5,1178.0,104.0,5.0,0.0,246,13148251,116,90.6,93.01675977653632,98.0,50615,70.00489999999999
609679,PROSSER HS,170993000681,681,Prosser Career Academy High School,1709930,41.91938,-87.761802,17031191200,0.726,6643762.0,1292.0,85.7,3.5,0.0,286,13656595,211,69.8,53.44129554655871,96.1,22686,72.4929
610357,SPRY HS,170993005677,5677,Spry Community Links High School,1709930,41.848607,-87.697784,17031301100,0.721,1114212.0,126.0,14.0,1.0,1.0,52,2116249,367,64.5,50.0,86.2,21376,71.8057
609695,AMUNDSEN HS,170993000587,587,Amundsen High School,1709930,41.975232,-87.680089,17031040402,0.7070000000000001,6422065.5,1023.0,75.0,3.0,0.0,45,11637203,140,93.1,96.4501815248084,97.3,57849,71.267
609741,HUBBARD HS,170993000889,889,Hubbard High School,1709930,41.780103,-87.718726,17031650100,0.7040000000000001,8139949.5,1715.0,103.0,5.0,0.0,407,16741626,332,74.0,64.6766169154229,88.9,19429,70.4545
609713,HYDE PARK HS,170993000893,893,Hyde Park Academy High School,1709930,41.78211,-87.587269,17031420100,0.698,4205745.0,839.0,54.0,2.0,2.0,43,8565506,354,65.0,63.37837837837837,92.9,24175,68.7334
609724,MATHER HS,170993000977,977,Mather High School,1709930,41.988119,-87.701409,17031020701,0.698,7191860.5,1278.0,94.0,5.0,0.0,355,14017049,55,92.8,86.34146341463415,95.5,35982,71.7018
609739,WASHINGTON HS,170993001189,1189,Washington G High School,1709930,41.687525,-87.53905,17031520600,0.6970000000000001,6530511.5,1327.0,94.0,4.0,4.0,285,12888310,94,83.3,57.42821473158551,87.1,26359,67.4711
609727,PHILLIPS HS,170993001061,1061,Phillips Academy High School,1709930,41.824429,-87.619904,17031839600,0.696,3086816.0,595.0,40.0,2.0,0.0,56,6817004,192,83.2,58.08917197452229,89.3,42038,69.4785
609718,KENNEDY HS,170993000924,924,Kennedy High School,1709930,41.790206,-87.780788,17031561100,0.6940000000000001,7503292.0,1266.0,108.0,5.0,0.0,213,15442674,177,96.2,74.90676611614278,94.1,40117,71.803
610513,AIR FORCE HS,170993006055,6055,Air Force Academy High School,1709930,41.827898,-87.632962,17031340600,0.6890000000000001,2223381.25,228.0,21.0,2.0,0.0,37,3703462,226,28.599999999999994,38.7409200968523,65.9,13421,69.51259999999999
609691,NORTH-GRAND HS,170993005074,5074,North-Grand High School,1709930,41.912521,-87.735313,17031230500,0.685,5013560.5,922.0,63.0,4.0,0.0,136,9469949,433,61.8,62.45551601423488,97.2,23232,72.6627
609759,CLEMENTE HS,170993001086,1086,Clemente Community Academy High School,1709930,41.902601,-87.685986,17031242400,0.6809999999999999,4253778.5,707.0,56.0,2.0,2.0,118,8307520,56,89.1,88.6861313868613,96.3,48333,71.1694
609732,STEINMETZ HS,170993001139,1139,Steinmetz College Prep High School,1709930,41.935607,-87.784325,17031190401,0.679,6570590.0,1147.0,79.0,4.0,0.0,161,13707030,165,82.3,67.26094003241491,88.4,30870,73.404
610381,BRONZEVILLE HS,170993005792,5792,Bronzeville Scholastic High School,1709930,41.804436,-87.62508,17031381800,0.679,1741379.25,306.0,21.0,1.0,0.0,1,4149943,170,74.9,62.56983240223464,95.2,35583,69.4213
609760,CARVER MILITARY HS,170993000671,671,Carver Military Academy High School,1709930,41.656534,-87.589046,17031540102,0.6759999999999999,3080580.5,448.0,25.0,1.0,0.0,55,5461029,651,36.2,49.826086956521735,72.3,15660,68.6421
609692,SIMEON HS,170993000758,758,Simeon Career Academy High School,1709930,41.74549,-87.634742,17031842400,0.667,6499405.5,1212.0,71.0,2.0,0.0,0,12474172,278,73.9,71.52941176470588,77.9,28821,69.79639999999999
609719,LAKE VIEW HS,170993000941,941,Lake View High School,1709930,41.955475,-87.668633,17031060100,0.662,6666651.0,1127.0,87.5,5.0,2.0,254,12478124,38,94.7,91.11654441727792,98.4,62577,70.3412
609728,ROOSEVELT HS,170993001093,1093,Roosevelt High School,1709930,41.964989,-87.714552,17031140702,0.6609999999999999,5661820.0,1068.0,78.0,2.0,2.0,97,12326817,327,76.8,68.59223300970874,93.0,28096,71.6599
609725,MORGAN PARK HS,170993001002,1002,Morgan Park High School,1709930,41.692187,-87.665682,17031750500,0.655,7401217.5,1122.0,82.5,2.0,1.0,84,13500215,327,76.6,53.80929563967417,88.9,35894,68.9847
609715,KELLY HS,170993000920,920,Kelly High School,1709930,41.818178,-87.694838,17031580501,0.647,9806303.0,1807.0,122.0,4.0,0.0,168,20742829,389,72.3,62.94416243654823,91.2,23895,70.9734
609711,HARPER HS,170993000852,852,Harper High School,1709930,41.775322,-87.669837,17031671300,0.639,1423875.125,131.0,10.0,1.0,1.0,0,3616671,276,75.6,48.18481848184818,69.3,20599,70.0134
609723,MARSHALL HS,170993000972,972,Marshall Metropolitan High School,1709930,41.878873,-87.707189,17031271300,0.632,2315346.75,329.0,28.0,0.0,0.0,22,5789239,156,45.3,65.83333333333333,83.1,24415,72.2265
609764,JUAREZ HS,170993000722,722,Juarez Community Academy High School,1709930,41.852914,-87.66456,17031310700,0.628,7768499.0,1678.0,110.0,5.0,0.0,183,15191521,75,73.8,75.24752475247524,94.7,22589,70.56569999999999
609710,HARLAN HS,170993000851,851,Harlan Community Academy High School,1709930,41.71875,-87.621348,17031490500,0.623,2646353.5,369.0,27.0,1.0,0.0,0,6872795,189,84.9,74.62277091906722,79.7,25455,68.8012
610394,UPLIFT HS,170993005787,5787,Uplift Community High School,1709930,41.965948,-87.65217,17031031501,0.61,1783062.875,228.0,20.5,1.0,0.0,0,3978280,691,55.8,66.0472972972973,88.5,26314,70.4863
609780,MARINE LEADERSHIP AT AMES HS,170993002618,2618,Marine Leadership Academy - Ames,1709930,41.916146,-87.722135,17031222900,0.5920000000000001,4807651.5,835.0,55.0,3.0,0.0,98,8528093,72,81.6,77.66666666666666,96.0,23850,72.1508
609729,SCHURZ HS,170993001111,1111,Schurz High School,1709930,41.947454,-87.735529,17031161100,0.59,8516623.0,1613.0,114.0,4.0,4.0,178,18449897,56,98.2,80.02680965147452,98.7,63565,72.2578
609698,BOGAN HS,170993000626,626,Bogan High School,1709930,41.748598,-87.720583,17031700401,0.581,4260358.5,719.0,56.0,1.0,2.0,0,9157882,415,85.0,74.31340872374797,92.0,32458,70.2741
400091,CHICAGO TECH HS,170993006076,6076,Chicago Technology Academy High School,1709930,41.863183,-87.659626,17031842900,0.564,2236946.0,223.0,23.0,1.0,0.0,37,3339878,429,63.7,46.86411149825784,92.8,24038,70.8892
609750,SIMPSON HS,170993004383,4383,Simpson Academy High School for Young Women,1709930,41.864477,-87.668483,17031842900,0.55,633842.375,37.0,12.0,1.0,0.0,0,1876352,429,63.7,46.86411149825784,92.8,24038,70.8892
609733,SULLIVAN HS,170993001149,1149,Sullivan High School,1709930,42.002831,-87.668928,17031830600,0.564,3656245.75,684.0,48.5,2.0,3.0,22,7401090,387,80.8,79.55032119914347,94.1,29520,71.0577
609708,FOREMAN HS,170993000799,799,Foreman High School,1709930,41.939595,-87.753937,17031151001,0.546,4318621.0,765.0,52.0,2.0,0.0,15,10672391,174,80.2,64.02714932126696,94.7,30292,72.63640000000001
609761,CORLISS HS,170993001072,1072,Corliss High School,1709930,41.706533,-87.602607,17031500200,0.526,2151689.75,269.0,25.0,1.0,1.0,73,5540143,460,67.6,58.22784810126582,80.5,24637,68.5259
609676,DUNBAR HS,170993000588,588,Dunbar Vocational Career Academy High School,1709930,41.839591,-87.618741,17031839200,0.517,2850257.75,437.0,35.0,1.0,5.0,0,7836177,304,77.8,75.66995768688294,90.9,28500,69.6054
609740,WELLS HS,170993001192,1192,Wells Community Academy High School,1709930,41.899153,-87.668346,17031242100,0.509,2324199.0,347.0,28.5,2.0,0.0,96,5153674,88,93.9,95.49819927971188,96.6,55991,70.5677
609705,FENGER HS,170993000792,792,Fenger Academy High School,1709930,41.689552,-87.637839,17031491200,0.49,1526499.125,238.0,13.0,1.0,0.0,0,3762467,212,72.6,69.88472622478386,80.2,24266,68.6833
610334,RABY HS,170993005075,5075,Raby High School,1709930,41.8858,-87.715382,17031836800,0.485,2326997.0,378.0,31.5,1.0,0.0,0,5332785,577,40.3,50.0,90.0,18250,71.3527
609682,RICHARDS HS,170993000718,718,Richards Career Academy High School,1709930,41.802843,-87.662097,17031611200,0.47600000000000003,1497494.625,213.0,16.0,1.0,0.0,0,3326017,241,57.8,53.53107344632768,85.9,16722,70.8346
609712,HIRSCH HS,170993000879,879,Hirsch Metropolitan High School,1709930,41.753954,-87.601929,17031691500,0.469,1038801.938,135.0,12.0,1.0,0.0,1,3646071,401,62.9,48.52752880921895,74.8,23819,69.0189
609762,JULIAN HS,170993000895,895,Julian High School,1709930,41.70605,-87.654396,17031730700,0.469,3135945.75,500.0,37.0,2.0,0.0,93,8576847,250,73.3,71.22905027932961,89.1,31094,69.4628
609704,FARRAGUT HS,170993000788,788,Farragut Career Academy High School,1709930,41.849562,-87.708282,17031300800,0.465,4645916.5,724.0,59.0,2.0,1.0,17,10052878,540,58.0,48.6854034451496,93.9,18619,71.6803
609674,CHICAGO VOCATIONAL HS,170993000943,943,Chicago Vocational Career Academy High School,1709930,41.737729,-87.572866,17031450300,0.452,4733731.5,827.0,53.0,4.0,0.0,54,11034938,356,83.8,66.20132255694342,84.7,30176,68.5325
609735,TILDEN HS,170993001161,1161,Tilden Career Communty Academy High School,1709930,41.807504,-87.642518,17031843800,0.436,2005786.0,236.0,23.0,1.0,0.0,9,4478030,206,76.1,70.15873015873015,79.9,31976,69.5665
609722,MANLEY HS,170993001125,1125,Manley Career Academy High School,1709930,41.870762,-87.700024,17031271800,0.41700000000000004,1205192.375,105.0,12.0,1.0,0.0,17,3128787,103,26.3,52.11267605633802,86.3,17400,71.8863
609709,GAGE PARK HS,170993000809,809,Gage Park High School,1709930,41.79102,-87.689367,17031835100,0.409,1912312.625,328.0,24.0,1.0,0.0,53,6417880,446,77.3,69.58456973293768,80.2,23046,70.4769
609716,KELVYN PARK HS,170993000923,923,Kelvyn Park High School,1709930,41.92744,-87.736051,17031200200,0.409,2491887.5,441.0,31.5,1.5,0.0,56,6340474,449,80.3,65.6641604010025,96.6,24766,72.47149999999999
610518,AUSTIN CCA HS,170993005984,5984,Austin College and Career Academy High School,1709930,41.884832,-87.762933,17031251900,0.381,1689136.625,212.0,19.0,1.0,0.0,29,3966771,729,52.3,50.15615240474703,74.4,19353,72.3149
610323,BOWEN HS,170993005072,5072,Bowen High School,1709930,41.734303,-87.557463,17031460600,0.358,2006787.125,275.0,21.0,1.0,0.0,68,5069008,105,83.2,60.281690140845065,80.4,20642,68.0181
610245,DOUGLASS HS,170993005789,5789,Douglass Academy High School,1709930,41.890188,-87.767076,17031251400,0.326,1082972.125,98.0,9.0,1.0,0.0,0,2573479,508,71.8,46.43691588785047,89.1,28578,73.02120000000001
610386,PEACE AND EDUCATION HS,170993002596,2596,Peace and Education Coalition High School,1709930,41.80356,-87.667611,17031611300,0.245,934793.0,91.0,19.5,2.0,0.0,0,2955517,249,71.1,52.30582524271845,83.0,21069,71.0059
400147,CAMELOT - EXCEL HS,170993006219,6219,Chicago Excel Academy High School,1709930,41.69194,-87.654321,17031750600,0.22699999999999998,1927247.0,277.0,11.0,1.48,0.0,0,3002939,443,66.3,57.615894039735096,86.8,24271,68.7926
609766,VAUGHN HS,170993001018,1018,Vaughn Occupational High School,1709930,41.960243,-87.764367,17031150300,0.10800000000000001,2196538.25,184.0,26.0,1.0,1.0,0,5108268,261,86.8,79.839518555667,95.9,45327,72.4476
609769,GRAHAM HS,170993001076,1076,Graham  R Training Center,1709930,41.849534,-87.624985,17031841000,0.045,1464477.75,110.0,18.0,1.0,2.0,0,4119980,81,77.6,86.89788053949904,94.5,77750,69.2768
609748,YORK HS,170993000693,693,York Alternative High School,1709930,41.843173,-87.695803,17031843500,0.031,1311565.625,200.0,40.0,1.0,0.0,0,7334964,72,70.6,56.00000000000001,91.5,19324,70.92099999999999
609745,SOUTHSIDE HS,170993005305,5305,Southside Occupational Academy High School,1709930,41.759709,-87.676316,17031672000,0.0,2799687.25,245.0,33.5,1.0,0.0,0,7223968,400,79.6,56.14927905004241,75.1,26992,70.7116
609783,JEFFERSON HS,170993000894,894,Jefferson Alternative High School,1709930,41.867671,-87.681435,17031838200,0.0,1449788.5,169.0,45.0,1.0,0.0,0,7695434,43,61.9,72.25,91.0,7686,70.9809
